{"business_id":"uzZ9kUgC9DSPFsmwdsz18g","name":"Mojo Cycles","neighborhood":"Parkdale","address":"1652 Queen Street W","city":"Toronto","state":"ON","postal_code":"M6R 1B2","latitude":43.6392916,"longitude":-79.4432985,"stars":5.0,"review_count":7,"is_open":1,"attributes":{"BikeParking":"True","BusinessParking":"{'garage': False, 'street': True, 'validated': False, 'lot': False, 'valet': False}","DogsAllowed":"True","RestaurantsPriceRange2":"1","WheelchairAccessible":"True"},"categories":"Bikes, Sporting Goods, Bike Repair\/Maintenance, Local Services, Shopping","hours":{"Tuesday":"11:0-19:0","Wednesday":"11:0-19:0","Thursday":"11:0-19:0","Friday":"11:0-19:0","Saturday":"11:0-19:0","Sunday":"12:0-17:0"}}
{"business_id":"ChwJAokUc5B6N_ylr-hMig","name":"Thai Marlai","neighborhood":"","address":"19700 1 Norman Blvd","city":"Cornelius","state":"NC","postal_code":"28031","latitude":35.480913,"longitude":-80.882426,"stars":4.0,"review_count":17,"is_open":0,"attributes":{"Alcohol":"beer_and_wine","Ambience":"{'romantic': False, 'intimate': False, 'classy': False, 'hipster': False, 'divey': False, 'touristy': False, 'trendy': False, 'upscale': False, 'casual': True}","BusinessAcceptsCreditCards":"True","BusinessParking":"{'garage': False, 'street': False, 'validated': False, 'lot': True, 'valet': False}","DogsAllowed":"False","GoodForKids":"True","GoodForMeal":"{'dessert': False, 'latenight': False, 'lunch': False, 'dinner': True, 'breakfast': False, 'brunch': False}","HasTV":"False","NoiseLevel":"quiet","OutdoorSeating":"False","RestaurantsAttire":"casual","RestaurantsDelivery":"False","RestaurantsGoodForGroups":"True","RestaurantsPriceRange2":"2","RestaurantsReservations":"True","RestaurantsTableService":"True","RestaurantsTakeOut":"True","WheelchairAccessible":"True","WiFi":"no"},"categories":"Restaurants, Thai, Seafood","hours":{"Monday":"17:0-21:0","Tuesday":"17:0-21:0","Wednesday":"17:0-21:0","Thursday":"17:0-21:0","Friday":"17:0-21:30","Saturday":"17:0-21:30"}}
{"business_id":"NM4ACBwyDhpNMKGx6Fdx0g","name":"Gifts and guidance","neighborhood":"","address":"3555 Washington Ave","city":"Finleyville","state":"PA","postal_code":"15332","latitude":40.2526021,"longitude":-80.0029242,"stars":5.0,"review_count":3,"is_open":1,"attributes":{"AcceptsInsurance":"False","BikeParking":"True","BusinessAcceptsCreditCards":"True","ByAppointmentOnly":"True","GoodForKids":"False","WheelchairAccessible":"False"},"categories":"Arts & Entertainment, Psychic Mediums, Spiritual Shop, Professional Services, Health & Medical, Supernatural Readings, Psychics, Shopping, Reiki, Life Coach","hours":{"Monday":"10:0-21:0","Tuesday":"10:0-21:0","Wednesday":"10:0-21:0","Thursday":"10:0-21:0","Friday":"8:45-21:30","Saturday":"8:45-21:30","Sunday":"10:30-21:0"}}
{"business_id":"lf8Bp8hBmZdAVyIfRmPltg","name":"Finecraft Custom Shutters","neighborhood":"","address":"90 Wildcat Road","city":"North York","state":"ON","postal_code":"M3J 2V4","latitude":43.7784402,"longitude":-79.4875486,"stars":5.0,"review_count":3,"is_open":1,"attributes":{"BusinessAcceptsCreditCards":"True"},"categories":"Home Services, Flooring, Shutters, Shades & Blinds","hours":{"Monday":"9:0-17:0","Tuesday":"9:0-17:0","Wednesday":"9:0-17:0","Thursday":"9:0-17:0","Friday":"9:0-13:0"}}
{"business_id":"XtzMmh9T6OxctZZPQ6-S0A","name":"Planet Fitness - Charlotte - Coronation Blvd","neighborhood":"","address":"2200 Coronation Blvd","city":"Charlotte","state":"NC","postal_code":"28227","latitude":35.1419039,"longitude":-80.731854,"stars":3.0,"review_count":23,"is_open":1,"attributes":{"BusinessAcceptsCreditCards":"True","BusinessParking":"{'garage': False, 'street': False, 'validated': False, 'lot': False, 'valet': False}","ByAppointmentOnly":"False","DogsAllowed":"False","GoodForKids":"False"},"categories":"Trainers, Fitness & Instruction, Active Life, Gyms","hours":{"Monday":"0:0-0:0","Tuesday":"0:0-0:0","Wednesday":"0:0-0:0","Thursday":"0:0-0:0","Friday":"0:0-0:0","Saturday":"0:0-0:0","Sunday":"0:0-0:0"}}
{"business_id":"9cKFCoxjQKold0-vWK3b4g","name":"Mattress Firm Surprise","neighborhood":"","address":"13820 W Bell Rd","city":"Surprise","state":"AZ","postal_code":"85374","latitude":33.6389851,"longitude":-112.3578402,"stars":3.0,"review_count":9,"is_open":1,"attributes":{"BikeParking":"False","BusinessAcceptsCreditCards":"True","BusinessParking":"{'garage': False, 'street': False, 'validated': False, 'lot': False, 'valet': False}","RestaurantsPriceRange2":"2"},"categories":"Mattresses, Furniture Stores, Shopping, Home & Garden","hours":{"Monday":"10:0-20:0","Tuesday":"10:0-20:0","Wednesday":"10:0-19:0","Thursday":"10:0-20:0","Friday":"10:0-20:0","Saturday":"10:0-20:0","Sunday":"12:0-18:0"}}
{"business_id":"XtFlfoG08iEoxNHHWEMdgw","name":"AAA Senior Placement AZ by Sue Royer","neighborhood":"","address":"14537 W Grand Ave, Ste 110","city":"Surprise","state":"AZ","postal_code":"85374","latitude":33.6552648,"longitude":-112.3717372,"stars":5.0,"review_count":3,"is_open":1,"attributes":{"ByAppointmentOnly":"False"},"categories":"Health & Medical, Hospice, Home Health Care, Retirement Homes","hours":{"Monday":"6:0-5:30","Tuesday":"6:0-5:30","Wednesday":"6:0-5:30","Thursday":"6:0-5:30","Friday":"6:0-5:30","Saturday":"6:0-5:30","Sunday":"6:0-5:30"}}
{"business_id":"8cFzTMz32V8d8VWoAKpocw","name":"Glenforest Garage","neighborhood":"","address":"4 Glenforest Road","city":"Toronto","state":"ON","postal_code":"M4N 1Z8","latitude":43.7306079,"longitude":-79.4030197,"stars":2.5,"review_count":3,"is_open":1,"attributes":null,"categories":"Auto Repair, Automotive","hours":null}
{"business_id":"YT--S47-0A68dP-Fw-bT-A","name":"Hand & Stone Massage and Facial Spa","neighborhood":"","address":"27920 Chagrin Blvd, Ste-A","city":"Beachwood","state":"OH","postal_code":"44122","latitude":41.4619035,"longitude":-81.4813539,"stars":4.0,"review_count":20,"is_open":1,"attributes":{"BusinessAcceptsCreditCards":"True","BusinessParking":"{'garage': False, 'street': False, 'validated': False, 'lot': False, 'valet': False}","ByAppointmentOnly":"False","RestaurantsPriceRange2":"2"},"categories":"Skin Care, Day Spas, Beauty & Spas, Massage","hours":{"Monday":"9:0-21:0","Tuesday":"9:0-21:0","Wednesday":"9:0-21:0","Thursday":"9:0-21:0","Friday":"9:0-21:0","Saturday":"9:0-19:0","Sunday":"10:0-18:0"}}
{"business_id":"o5yYfL5EPfyCMeKWnKPk3A","name":"Au Bon Pain","neighborhood":"Downtown","address":"625 Liberty Ave","city":"Pittsburgh","state":"PA","postal_code":"15222","latitude":40.4424701,"longitude":-80.0009554,"stars":3.5,"review_count":14,"is_open":1,"attributes":{"Alcohol":"none","Ambience":"{'romantic': False, 'intimate': False, 'classy': False, 'hipster': False, 'divey': False, 'touristy': False, 'trendy': False, 'upscale': False, 'casual': False}","BikeParking":"True","BusinessAcceptsCreditCards":"True","BusinessParking":"{'garage': False, 'street': True, 'validated': False, 'lot': False, 'valet': False}","Caters":"True","GoodForKids":"True","GoodForMeal":"{'dessert': False, 'latenight': False, 'lunch': True, 'dinner': False, 'breakfast': False, 'brunch': False}","HasTV":"False","NoiseLevel":"average","OutdoorSeating":"False","RestaurantsAttire":"casual","RestaurantsDelivery":"True","RestaurantsGoodForGroups":"False","RestaurantsPriceRange2":"2","RestaurantsReservations":"False","RestaurantsTableService":"False","RestaurantsTakeOut":"True","WiFi":"free"},"categories":"Bakeries, Food, Cafes, Restaurants","hours":{"Monday":"8:0-18:0","Tuesday":"8:0-18:0","Wednesday":"8:0-18:0","Thursday":"8:0-18:0","Friday":"8:0-18:0"}}
{"business_id":"-4h-Q_DSBq5cE1f6j35uFg","name":"AZ Motor Trendz","neighborhood":"","address":"9800 N 91st Ave, Ste 100","city":"Peoria","state":"AZ","postal_code":"85345","latitude":33.5733894,"longitude":-112.2557339,"stars":1.0,"review_count":3,"is_open":1,"attributes":null,"categories":"Auto Parts & Supplies, Car Stereo Installation, Tires, Automotive","hours":{"Monday":"9:0-18:0","Tuesday":"9:0-18:0","Wednesday":"9:0-18:0","Thursday":"9:0-18:0","Friday":"9:0-18:0","Saturday":"10:0-15:0"}}
{"business_id":"_D-8wZlWf6eJJNADQZZQpg","name":"Krown Rust Control Center","neighborhood":"Scarborough","address":"4736 Sheppard Avenue E","city":"Scarborough","state":"ON","postal_code":"M1S 3V6","latitude":43.7912749,"longitude":-79.2555421,"stars":4.0,"review_count":4,"is_open":1,"attributes":null,"categories":"Auto Repair, Automotive","hours":{"Monday":"9:0-17:0","Tuesday":"9:0-17:0","Wednesday":"9:0-17:0","Thursday":"9:0-17:0","Friday":"9:0-17:0","Saturday":"9:0-14:0"}}
{"business_id":"mJ24zWo_FdE3_9v24sqFiw","name":"Vento's Pizza","neighborhood":"East Liberty","address":"420 N Highland Ave","city":"Pittsburgh","state":"PA","postal_code":"15206","latitude":40.4652748,"longitude":-79.9221357,"stars":3.5,"review_count":20,"is_open":1,"attributes":{"Alcohol":"none","Ambience":"{'romantic': False, 'intimate': False, 'classy': False, 'hipster': False, 'divey': False, 'touristy': False, 'trendy': False, 'upscale': False, 'casual': True}","BikeParking":"True","BusinessAcceptsCreditCards":"False","BusinessParking":"{'garage': False, 'street': False, 'validated': False, 'lot': True, 'valet': False}","Caters":"True","GoodForKids":"True","GoodForMeal":"{'dessert': False, 'latenight': False, 'lunch': True, 'dinner': True, 'breakfast': True, 'brunch': False}","HasTV":"False","NoiseLevel":"average","OutdoorSeating":"True","RestaurantsAttire":"casual","RestaurantsDelivery":"False","RestaurantsGoodForGroups":"True","RestaurantsPriceRange2":"1","RestaurantsReservations":"False","RestaurantsTableService":"False","RestaurantsTakeOut":"True","WiFi":"no"},"categories":"Italian, Salad, Sandwiches, Restaurants, Pizza","hours":{"Monday":"8:0-20:0","Tuesday":"8:0-20:0","Wednesday":"8:0-20:0","Thursday":"8:0-20:0","Friday":"8:0-20:0","Saturday":"8:0-20:0"}}
{"business_id":"ozA88S6hwJk051CV37j0Pg","name":"Pool Thing","neighborhood":"","address":"14747 N Northsight Blvd, Ste 111-239","city":"Scottsdale","state":"AZ","postal_code":"85260","latitude":33.6194903,"longitude":-111.8963147,"stars":5.0,"review_count":3,"is_open":1,"attributes":{"BusinessAcceptsCreditCards":"True"},"categories":"Home Services, Pool Cleaners","hours":null}
{"business_id":"SrSEykSct5hUGg7YxQTU2Q","name":"Crystal Palace Skating Center","neighborhood":"Eastside","address":"4680 Boulder Hwy","city":"Las Vegas","state":"NV","postal_code":"89121","latitude":36.1190805,"longitude":-115.0728249,"stars":2.5,"review_count":82,"is_open":1,"attributes":{"BikeParking":"True","BusinessAcceptsCreditCards":"True","BusinessParking":"{'garage': False, 'street': False, 'validated': False, 'lot': True, 'valet': False}","GoodForKids":"True"},"categories":"Amusement Parks, Active Life, Event Planning & Services, Party & Event Planning, Skating Rinks","hours":{"Monday":"9:0-22:0","Tuesday":"9:0-22:0","Wednesday":"9:0-22:0","Thursday":"9:0-22:0","Friday":"9:0-22:0","Saturday":"9:0-22:0","Sunday":"12:0-22:0"}}
{"business_id":"WHx9bWajimD4HIQP-pM1uw","name":"Welcome to Las Vegas","neighborhood":"Southeast","address":"5757 Wayne Newton Blvd, E Gates, Terminal 3","city":"Las Vegas","state":"NV","postal_code":"89111","latitude":36.08441,"longitude":-115.15034,"stars":4.0,"review_count":3,"is_open":1,"attributes":{"BusinessAcceptsCreditCards":"True","BusinessParking":"{'garage': False, 'street': False, 'validated': False, 'lot': False, 'valet': False}"},"categories":"Flowers & Gifts, Shopping, Souvenir Shops","hours":{"Monday":"7:0-23:0","Tuesday":"7:0-23:0","Wednesday":"7:0-23:0","Thursday":"7:0-23:0","Friday":"7:0-23:0","Sunday":"7:0-23:30"}}
{"business_id":"ykRbHPWp2kQQG2ELkamGeg","name":"UA Sonora Village 10","neighborhood":"","address":"15515 N Northsight Blvd","city":"Scottsdale","state":"AZ","postal_code":"85260","latitude":33.6259716,"longitude":-111.8948578,"stars":3.5,"review_count":9,"is_open":0,"attributes":{"GoodForKids":"False"},"categories":"Arts & Entertainment, Cinema","hours":null}
{"business_id":"hbzae3H9q_iIDYJIhpkoQw","name":"Wingate By Wyndham Concord\/Charlotte Area","neighborhood":"","address":"7841 Gateway Lane Nw, I-85 Exit 49 Speedway Blvd","city":"Concord","state":"NC","postal_code":"28027","latitude":35.3701605,"longitude":-80.7091203,"stars":3.0,"review_count":15,"is_open":1,"attributes":{"BusinessAcceptsCreditCards":"True","RestaurantsPriceRange2":"2","WiFi":"free"},"categories":"Hotels, Event Planning & Services, Hotels & Travel","hours":null}
{"business_id":"1Mb-Tn964EqrrJ-hxzjhWw","name":"Stein Mart","neighborhood":"","address":"6130 Bayfield Pkwy","city":"Concord","state":"NC","postal_code":"28027","latitude":35.4181668,"longitude":-80.67829,"stars":3.5,"review_count":5,"is_open":1,"attributes":{"BusinessAcceptsCreditCards":"True","BusinessParking":"{'garage': False, 'street': False, 'validated': False, 'lot': False, 'valet': False}","RestaurantsPriceRange2":"3"},"categories":"Department Stores, Shopping, Fashion","hours":null}
{"business_id":"mrow5k8PKO6mrof-e1LkVA","name":"Carolina Dental Specialists","neighborhood":"","address":"6044 Bayfield Pkwy","city":"Concord","state":"NC","postal_code":"28027","latitude":35.4197987523,"longitude":-80.6764036439,"stars":3.5,"review_count":3,"is_open":1,"attributes":{"AcceptsInsurance":"True","BusinessAcceptsCreditCards":"True","ByAppointmentOnly":"True"},"categories":"Orthodontists, Dentists, Health & Medical, Periodontists","hours":{"Monday":"8:0-17:0","Tuesday":"8:0-17:0","Wednesday":"10:0-18:0","Thursday":"8:0-17:0","Friday":"8:0-17:0","Saturday":"8:0-13:0"}}
{"business_id":"21762yRZkQ6H0wZVmTiM9g","name":"Koiya Izakaya","neighborhood":"Wychwood","address":"813 Saint Clair Avenue W","city":"Toronto","state":"ON","postal_code":"M6C","latitude":43.6804124,"longitude":-79.4307415,"stars":3.5,"review_count":6,"is_open":0,"attributes":{"BikeParking":"True","BusinessAcceptsCreditCards":"True","GoodForKids":"True","HasTV":"False","OutdoorSeating":"True","RestaurantsAttire":"casual","RestaurantsDelivery":"True","RestaurantsGoodForGroups":"True","RestaurantsPriceRange2":"2","RestaurantsReservations":"True","RestaurantsTakeOut":"True","WiFi":"no"},"categories":"Restaurants, Japanese","hours":{"Monday":"11:0-23:0","Tuesday":"11:0-23:0","Wednesday":"11:0-23:0","Thursday":"11:0-23:0","Friday":"11:0-0:0","Saturday":"16:0-0:0"}}
{"business_id":"KR4mgbhtrcoH5NGx32uS6g","name":"Macy's - Final Clearance Sale","neighborhood":"","address":"Carolina Place, 11001 Carolina Place Pkwy","city":"Pineville","state":"NC","postal_code":"28134","latitude":35.082878,"longitude":-80.87783,"stars":3.5,"review_count":6,"is_open":0,"attributes":{"BikeParking":"False","BusinessAcceptsCreditCards":"True","BusinessParking":"{'garage': False, 'street': False, 'validated': False, 'lot': True, 'valet': False}","RestaurantsPriceRange2":"2"},"categories":"Women's Clothing, Shoe Stores, Department Stores, Men's Clothing, Fashion, Shopping","hours":{"Monday":"10:0-20:0","Tuesday":"10:0-20:0","Wednesday":"10:0-20:0","Thursday":"10:0-21:0","Friday":"10:0-22:0","Saturday":"10:0-22:0","Sunday":"11:0-19:0"}}
{"business_id":"Lft-0Xy72YbwRkn_n5hfXA","name":"Lime Asian Cuisine","neighborhood":"Yonge and Eglinton","address":"170 Eglinton Avenue E","city":"Toronto","state":"ON","postal_code":"M4P 1A6","latitude":43.7080524,"longitude":-79.3932104,"stars":3.5,"review_count":60,"is_open":1,"attributes":{"Alcohol":"full_bar","Ambience":"{'romantic': False, 'intimate': False, 'classy': False, 'hipster': False, 'touristy': False, 'trendy': False, 'upscale': False, 'casual': False}","BikeParking":"True","BusinessAcceptsCreditCards":"True","BusinessParking":"{'garage': False, 'street': True, 'validated': False, 'lot': False, 'valet': False}","Caters":"False","GoodForKids":"True","GoodForMeal":"{'dessert': False, 'latenight': False, 'lunch': True, 'dinner': True, 'breakfast': False, 'brunch': False}","HasTV":"False","NoiseLevel":"average","OutdoorSeating":"False","RestaurantsAttire":"casual","RestaurantsDelivery":"True","RestaurantsGoodForGroups":"True","RestaurantsPriceRange2":"2","RestaurantsReservations":"True","RestaurantsTableService":"True","RestaurantsTakeOut":"True","WiFi":"no"},"categories":"Restaurants, Thai","hours":{"Monday":"17:0-22:0","Tuesday":"17:0-22:0","Wednesday":"17:0-22:0","Thursday":"17:0-22:0","Friday":"17:0-22:0","Saturday":"17:0-23:0","Sunday":"17:0-22:0"}}
{"business_id":"mA3kz245czbdqAyJMg9BsQ","name":"La Veranda Osteria","neighborhood":"Etobicoke","address":"946 Royal York Road","city":"Toronto","state":"ON","postal_code":"M8X 2E5","latitude":43.6476149,"longitude":-79.5118194,"stars":3.0,"review_count":35,"is_open":1,"attributes":{"Alcohol":"full_bar","Ambience":"{'romantic': False, 'intimate': False, 'classy': False, 'hipster': False, 'touristy': False, 'trendy': False, 'upscale': False, 'casual': True}","BikeParking":"True","BusinessAcceptsCreditCards":"True","Caters":"True","GoodForKids":"True","GoodForMeal":"{'dessert': False, 'latenight': False, 'lunch': True, 'dinner': True, 'breakfast': False, 'brunch': False}","HasTV":"False","NoiseLevel":"average","OutdoorSeating":"True","RestaurantsAttire":"casual","RestaurantsDelivery":"False","RestaurantsGoodForGroups":"True","RestaurantsPriceRange2":"2","RestaurantsReservations":"True","RestaurantsTableService":"True","RestaurantsTakeOut":"True","WiFi":"no"},"categories":"Restaurants, Italian, Gluten-Free","hours":{"Monday":"11:0-21:30","Tuesday":"11:0-21:30","Wednesday":"11:0-21:30","Thursday":"11:0-21:30","Friday":"11:0-22:30","Saturday":"11:0-22:30","Sunday":"11:0-21:30"}}
{"business_id":"uKcVJ3OqtrzM-3Yd-Y32nQ","name":"Round Venue","neighborhood":"Kensington Market","address":"152 A Augusta Avenue","city":"Toronto","state":"ON","postal_code":"M5T 2L5","latitude":43.6527884,"longitude":-79.4015209,"stars":3.5,"review_count":14,"is_open":1,"attributes":{"Alcohol":"full_bar","Ambience":"{'romantic': False, 'intimate': False, 'classy': False, 'hipster': False, 'touristy': False, 'trendy': False, 'upscale': False, 'casual': False}","BestNights":"{'monday': False, 'tuesday': False, 'friday': True, 'wednesday': False, 'thursday': True, 'sunday': False, 'saturday': True}","BikeParking":"True","BusinessAcceptsCreditCards":"True","BusinessParking":"{'garage': False, 'street': True, 'validated': False, 'lot': False, 'valet': False}","CoatCheck":"True","GoodForDancing":"True","GoodForKids":"False","HasTV":"False","Music":"{'dj': True, 'background_music': False, 'no_music': False, 'karaoke': False, 'live': False, 'video': False, 'jukebox': False}","NoiseLevel":"very_loud","OutdoorSeating":"False","RestaurantsGoodForGroups":"True","RestaurantsPriceRange2":"2","Smoking":"no","WheelchairAccessible":"False"},"categories":"Music Venues, Event Planning & Services, Nightlife, Venues & Event Spaces, Arts & Entertainment, Bars","hours":{"Wednesday":"18:0-22:0","Thursday":"22:0-2:45","Friday":"22:0-2:45","Saturday":"22:0-2:45","Sunday":"18:0-21:30"}}
{"business_id":"pMbei1UqJgxURqj1oaWRvA","name":"Shooter's Vault","neighborhood":"","address":"16846 West Bell Rd, Ste 103","city":"Surprise","state":"AZ","postal_code":"85374","latitude":33.6402784518,"longitude":-112.422031576,"stars":2.5,"review_count":17,"is_open":1,"attributes":{"BikeParking":"False","BusinessAcceptsCreditCards":"True","BusinessParking":"{'garage': False, 'street': False, 'validated': False, 'lot': True, 'valet': False}","RestaurantsPriceRange2":"3"},"categories":"Guns & Ammo, Shopping","hours":{"Monday":"10:0-19:0","Tuesday":"10:0-19:0","Wednesday":"10:0-19:0","Thursday":"10:0-19:0","Friday":"10:0-19:0","Saturday":"10:0-17:0","Sunday":"10:0-16:0"}}